[
  {
    "name": "Hagia Sophia",
    "rating": 4.6,
    "description": "Hagia Sophia was a Greek Orthodox Christian patriarchal basilica, later an imperial mosque, and now a museum in Istanbul, Turkey.",
    "location": {
      "type": "Point",
      "coordinates": [
        41.008889,
        28.980104
      ]
    }
  },
  {
    "name": "Topkapı Palace",
    "rating": 4.6,
    "description": "The Topkapı Palace or the Seraglio, is a large palace in Istanbul, Turkey, that was one of the major residences of the Ottoman sultans for almost 400 years of their 624-year reign.",
    "location": {
      "type": "Point",
      "coordinates": [
        41.013587,
        28.983722
      ]
    }
  },
  {
    "name": "Sultan Ahmed Mosque",
    "rating": 4.7,
    "description": "The Sultan Ahmed Mosque or Sultan Ahmet Mosque (Turkish: Sultan Ahmet Camii) is a historic mosque located in Istanbul, Turkey. A popular tourist site, the Sultan Ahmed Mosque continues to function as a mosque today; men still kneel in prayer on the mosque's lush red carpet after the call to prayer.",
    "location": {
      "type": "Point",
      "coordinates": [
        41.005677,
        28.976862
      ]
    }
  },
  {
    "name": "Grand Bazaar",
    "rating": 4.2,
    "description": "The Grand Bazaar in Istanbul is one of the largest and oldest covered markets in the world, with 61 covered streets and over 4,000 shops which attract between 250,000 and 400,000 visitors daily.",
    "location": {
      "type": "Point",
      "coordinates": [
        41.010847,
        28.968052
      ]
    }
  },
  {
    "name": "Basilica Cistern",
    "rating": 4.6,
    "description": "The Basilica Cistern, is the largest of several hundred ancient cisterns that lie beneath the city of Istanbul, Turkey.",
    "location": {
      "type": "Point",
      "coordinates": [
        41.008619,
        28.977873
      ]
    }
  },
  {
    "name": "Galata Tower",
    "rating": 4.6,
    "description": "The Galata Tower — called Christea Turris by the Genoese — is a medieval stone tower in the Galata/Karaköy quarter of Istanbul, Turkey, just to the north of the Golden Horn's junction with the Bosphorus.",
    "location": {
      "type": "Point",
      "coordinates": [
        41.025899,
        28.974258
      ]
    }
  },
  {
    "name": "Süleymaniye Mosque",
    "rating": 4.8,
    "description": "The Süleymaniye Mosque is an Ottoman imperial mosque located on the Third Hill of Istanbul, Turkey. It is the second largest mosque in the city, and one of the best-known sights of Istanbul. ",
    "location": {
      "type": "Point",
      "coordinates": [
        41.016437,
        28.964126
      ]
    }
  },
  {
    "name": "Dolmabahçe Palace",
    "rating": 4.6,
    "description": "Dolmabahçe Palace located in the Beşiktaş district of Istanbul, Turkey, on the European coast of the Bosphorus, served as the main administrative center of the Ottoman Empire from 1856 to 1887 and 1909 to 1922.",
    "location": {
      "type": "Point",
      "coordinates": [
        41.039423,
        29.000518
      ]
    }
  },
  {
    "name": "Chora Church",
    "rating": 4.6,
    "description": "The Church of the Holy Saviour in Chora is a medieval Byzantine Greek Orthodox church preserved as a museum in the Edirnekapı neighborhood of Istanbul. The neighborhood is situated in the western part of the municipality of the Fatih district.",
    "location": {
      "type": "Point",
      "coordinates": [
        41.03144,
        28.939172
      ]
    }
  },
  {
    "name": "Golden Horn",
    "rating": 4,
    "description": "The Golden Horn, also known by its modern Turkish name as Haliç, is a major urban waterway and the primary inlet of the Bosphorus in Istanbul, Turkey.",
    "location": {
      "type": "Point",
      "coordinates": [
        41.032218,
        28.961932
      ]
    }
  },
  {
    "name": "Spice Bazaar",
    "rating": 4.5,
    "description": "The Spice Bazaar in Istanbul, Turkey is one of the largest bazaars in the city. Located in the Eminönü quarter of the Fatih district, it is the most famous covered shopping complex after the Grand Bazaar.",
    "location": {
      "type": "Point",
      "coordinates": [
        41.016711,
        28.970471
      ]
    }
  },
  {
    "name": "İstiklal Avenue",
    "rating": 4,
    "description": "İstiklal Avenue or Istiklal Street is one of the most famous avenues in Istanbul, Turkey, visited by nearly 3 million people in a single day over the course of weekends.",
    "location": {
      "type": "Point",
      "coordinates": [
        41.034244,
        28.9786
      ]
    }
  },
  {
    "name": "Hippodrome of Constantinople",
    "rating": 4.7,
    "description": "The Hippodrome of Constantinople was a circus that was the sporting and social centre of Constantinople, capital of the Byzantine Empire.",
    "location": {
      "type": "Point",
      "coordinates": [
        41.007567,
        28.978158
      ]
    }
  },
  {
    "name": "İstanbul Archaeology Museums",
    "rating": 4.7,
    "description": "The Istanbul Archaeology Museums is a group of three archeological museums located in the Eminönü district of Istanbul, Turkey, near Gülhane Park and Topkapı Palace. ",
    "location": {
      "type": "Point",
      "coordinates": [
        41.011896,
        28.981352
      ]
    }
  },
  {
    "name": "Beyazıt Square",
    "rating": 4.6,
    "description": "Beyazıt Square is a square in the district of Fatih, situated in the European part of Istanbul, Turkey. It is officially named Freedom Square, but is known as Beyazıt Square after the Bayezid II Mosque on one side of it.",
    "location": {
      "type": "Point",
      "coordinates": [
        41.010749,
        28.963872
      ]
    }
  },
  {
    "name": "Istanbul Modern Art Museum",
    "rating": 4.4,
    "description": "İstanbul Modern, a.k.a. Istanbul Museum of Modern Art, is a museum of contemporary art in the Beyoğlu district of Istanbul, Turkey. Inaugurated on December 11, 2004, the museum features the work of Turkish artists.",
    "location": {
      "type": "Point",
      "coordinates": [
        41.026922,
        28.984466
      ]
    }
  },
  {
    "name": "Miniatürk",
    "rating": 4.6,
    "description": "Miniatürk is a miniature park situated at the north-eastern shore of Golden Horn in Istanbul, Turkey. It was opened May 2, 2003. Miniatürk covers a total area of 60,000 square metres.",
    "location": {
      "type": "Point",
      "coordinates": [
        41.060035,
        28.948717
      ]
    }
  },
  {
    "name": "Gülhane Park",
    "rating": 4.6,
    "description": "Gülhane Park is a historical urban park in the Eminönü district of Istanbul, Turkey; it is located adjacent to and on the grounds of the Topkapı Palace. The south entrance of the park sports one of the larger gates of the palace.",
    "location": {
      "type": "Point",
      "coordinates": [
        41.013819,
        28.98056
      ]
    }
  },
  {
    "name": "New Mosque",
    "rating": 4.7,
    "description": "The Yeni Cami (pronounced Yeni jami), meaning New Mosque; originally named the Valide Sultan Mosque (Turkish: Valide Sultan Camii) and later New Valide Sultan Mosque (Turkish: Yeni Valide Sultan Camii) after its partial reconstruction and completion between 1660 and 1665; is an Ottoman imperial mosque located in the Eminönü quarter of Istanbul, Turkey.",
    "location": {
      "type": "Point",
      "coordinates": [
        41.017189,
        28.971938
      ]
    }
  },
  {
    "name": "Maiden's Tower",
    "rating": 4.6,
    "description": "The Maiden's Tower, also known as Leander's Tower since the medieval Byzantine period, is a tower lying on a small islet located at the southern entrance of the Bosphorus strait 200 m from the coast of Üsküdar in Istanbul, Turkey.",
    "location": {
      "type": "Point",
      "coordinates": [
        41.021348,
        29.004148
      ]
    }
  },
  {
    "name": "Turkish and Islamic Arts Museum",
    "rating": 4.8,
    "description": "The Turkish and Islamic Arts Museum is a museum located in Sultanahmet Square in Fatih district of Istanbul, Turkey. ",
    "location": {
      "type": "Point",
      "coordinates": [
        41.006442, 28.974758
      ]
    }
  },
  {
    "name": "Beyazıt camii",
    "rating": 4.8,
    "description": "The Turkish and Islamic Arts Museum is a museum located in Sultanahmet Square in Fatih district of Istanbul, Turkey. ",
    "location": {
      "type": "Point",
      "coordinates": [
        41.010254, 28.965200
      ]
    }
  },
  {
    "name": "Mısır çarşısı",
    "rating": 4.8,
    "description": "The Turkish and Islamic Arts Museum is a museum located in Sultanahmet Square in Fatih district of Istanbul, Turkey. ",
    "location": {
      "type": "Point",
      "coordinates": [
        41.016728, 28.970602
      ]
    }
  },
  {
    "name": "Taksim meydanı",
    "rating": 4.8,
    "description": "The Turkish and Islamic Arts Museum is a museum located in Sultanahmet Square in Fatih district of Istanbul, Turkey. ",
    "location": {
      "type": "Point",
      "coordinates": [
        41.036331, 28.986571
      ]
    }
  },
  {
    "name": "Tüyap kitap fuarı",
    "rating": 4.8,
    "description": "The Turkish and Islamic Arts Museum is a museum located in Sultanahmet Square in Fatih district of Istanbul, Turkey. ",
    "location": {
      "type": "Point",
      "coordinates": [
        41.025901, 28.623272
      ]
    }
  },
  {
    "name": "Tombili heykeli",
    "rating": 4.8,
    "description": "The Turkish and Islamic Arts Museum is a museum located in Sultanahmet Square in Fatih district of Istanbul, Turkey. ",
    "location": {
      "type": "Point",
      "coordinates": [
        40.989013, 29.042325
      ]
    }
  },
  {
    "name": "Galata kulesi",
    "rating": 4.8,
    "description": "The Turkish and Islamic Arts Museum is a museum located in Sultanahmet Square in Fatih district of Istanbul, Turkey. ",
    "location": {
      "type": "Point",
      "coordinates": [
        41.025697, 28.974285
      ]
    }
  },
  {
    "name": "İtü bilim merkezi",
    "rating": 4.8,
    "description": "The Turkish and Islamic Arts Museum is a museum located in Sultanahmet Square in Fatih district of Istanbul, Turkey. ",
    "location": {
      "type": "Point",
      "coordinates": [
        41.041382, 28.990780
      ]
    }
  },
  {
    "name": "Getir Ofisi",
    "rating": 4.8,
    "description": "The Turkish and Islamic Arts Museum is a museum located in Sultanahmet Square in Fatih district of Istanbul, Turkey. ",
    "location": {
      "type": "Point",
      "coordinates": [
        41.078644, 29.022236
      ]
    }
  }
  
]